{"version": 0.6, "generator": "Overpass API 0.7.57 93a4d346", "osm3s": {"timestamp_osm_base": "2022-05-10T07:09:55Z", "copyright": "The data included in this document is from www.openstreetmap.org. The data is made available under ODbL."}, "elements": [{"type": "node", "id": 373304020, "lat": 49.492214, "lon": 11.2437225, "tags": {"addr:city": "R\u00fcckersdorf", "addr:country": "DE", "addr:housenumber": "5", "addr:postcode": "90607", "addr:street": "Luitpoldplatz", "amenity": "fire_station", "name": "Freiwillige Feuerwehr R\u00fcckersdorf", "website": "https://www.ff-rueckersdorf.de/"}}, {"type": "node", "id": 574465694, "lat": 49.5007954, "lon": 11.260713}, {"type": "node", "id": 574465695, "lat": 49.5007583, "lon": 11.260685}, {"type": "node", "id": 574465696, "lat": 49.5006926, "lon": 11.2608134}, {"type": "node", "id": 574465698, "lat": 49.5007765, "lon": 11.2606671}, {"type": "node", "id": 574465699, "lat": 49.5006409, "lon": 11.260688}, {"type": "node", "id": 574465700, "lat": 49.5007255, "lon": 11.2606054}, {"type": "node", "id": 1035660569, "lat": 49.4745881, "lon": 11.2473126}, {"type": "node", "id": 1035660572, "lat": 49.4746136, "lon": 11.2475063}, {"type": "node", "id": 1035660582, "lat": 49.474679, "lon": 11.2467918}, {"type": "node", "id": 1035660601, "lat": 49.4747727, "lon": 11.247572}, {"type": "node", "id": 1035660606, "lat": 49.4747466, "lon": 11.2473707}, {"type": "node", "id": 1035660613, "lat": 49.4748037, "lon": 11.2473943}, {"type": "node", "id": 1035660618, "lat": 49.4746434, "lon": 11.2473355}, {"type": "node", "id": 1035660637, "lat": 49.4748363, "lon": 11.2468568}, {"type": "node", "id": 1035671785, "lat": 49.471469, "lon": 11.2683073, "tags": {"addr:city": "R\u00f6thenbach an der Pegnitz", "addr:country": "DE", "addr:housenumber": "4", "addr:postcode": "90552", "addr:street": "Altdorfer Stra\u00dfe", "amenity": "fire_station", "name": "Freiwillige Feuerwehr Renzenhof", "website": "http://www.ff-renzenhof.roethenbach.de"}}, {"type": "way", "id": 45248581, "nodes": [574465700, 574465695, 574465698, 574465694, 574465696, 574465699, 574465700], "tags": {"addr:city": "Lauf an der Pegnitz", "addr:country": "DE", "addr:housenumber": "8", "addr:postcode": "91207", "addr:street": "Hirtengasse", "amenity": "fire_station", "building": "yes", "name": "Freiwillige Feuerwehr Wetzendorf"}}, {"type": "way", "id": 89237051, "nodes": [1035660582, 1035660569, 1035660618, 1035660572, 1035660601, 1035660613, 1035660606, 1035660637, 1035660582], "tags": {"addr:city": "R\u00f6thenbach an der Pegnitz", "addr:country": "DE", "addr:housenumber": "4", "addr:postcode": "90552", "addr:street": "M\u00fchllach", "amenity": "fire_station", "building": "yes", "name": "Freiwillige Feuerwehr R\u00f6thenbach", "website": "www.ffw.roethenbach.de"}}]}